[{"id":"0083","name":"ул. Власихинская, д. 67","address":"ул. Власихинская, д. 67","cityKey":"brn","type":"hypermarket","lat":53.326513,"long":83.684875,"opensAt":"0","closesAt":"0","image":null,"is24hStore":true,"hasPetShop":false},{"id":"0097","name":"пр. Ленина, д. 102В","address":"пр. Ленина, д. 102В","cityKey":"brn","type":"hypermarket","lat":53.362282,"long":83.763781,"opensAt":"8","closesAt":"23","image":null,"is24hStore":false,"hasPetShop":false},{"id":"0845","name":"ул. П. С. Кулагина, д. 44","address":"ул. П. С. Кулагина, д. 44","cityKey":"brn","type":"supermarket","lat":53.378251,"long":83.789551,"opensAt":"8","closesAt":"23","image":null,"is24hStore":false,"hasPetShop":false},{"id":"0075","name":"Павловский тракт, д. 156","address":"Павловский тракт, д. 156","cityKey":"brn","type":"hypermarket","lat":53.346273,"long":83.665995,"opensAt":"0","closesAt":"0","image":null,"is24hStore":true,"hasPetShop":false},{"id":"0843","name":"ул. Попова, д. 86","address":"ул. Попова, д. 86","cityKey":"brn","type":"supermarket","lat":53.367583,"long":83.675172,"opensAt":"8","closesAt":"23","image":null,"is24hStore":false,"hasPetShop":false},{"id":"0844","name":"ул. Северо-Западная, д. 155","address":"ул. Северо-Западная, д. 155","cityKey":"brn","type":"supermarket","lat":53.359826,"long":83.726633,"opensAt":"8","closesAt":"23","image":null,"is24hStore":false,"hasPetShop":false},{"id":"0846","name":"ул. Сергея Семенова, д. 9","address":"ул. Сергея Семенова, д. 9","cityKey":"brn","type":"supermarket","lat":53.350459,"long":83.669989,"opensAt":"8","closesAt":"23","image":null,"is24hStore":false,"hasPetShop":false},{"id":"0848","name":"пр. Энергетиков, 11","address":"пр. Энергетиков, 11","cityKey":"brn","type":"supermarket","lat":53.337101,"long":83.648257,"opensAt":"8","closesAt":"23","image":null,"is24hStore":false,"hasPetShop":false}]