[{"id":"0229","name":"ул. 22 Партсъезда, д. 2","address":"ул. 22 Партсъезда, д. 2","cityKey":"ekat","type":"hypermarket","lat":56.886145,"long":60.583169,"opensAt":"0","closesAt":"24","image":null,"is24hStore":true,"hasPetShop":false},{"id":"0905","name":"ул. 8 марта, д. 273","address":"ул. 8 марта, д. 273","cityKey":"ekat","type":"supermarket","lat":56.786524,"long":60.607389,"opensAt":"8","closesAt":"23","image":null,"is24hStore":false,"hasPetShop":false},{"id":"0227","name":"пр. Академика Сахарова, д. 107/1","address":"пр. Академика Сахарова, д. 107/1","cityKey":"ekat","type":"hypermarket","lat":56.792699,"long":60.499779,"opensAt":"0","closesAt":"0","image":null,"is24hStore":true,"hasPetShop":false},{"id":"0910","name":"ул. Бебеля, д. 132А","address":"ул. Бебеля, д. 132А","cityKey":"ekat","type":"supermarket","lat":56.854624,"long":60.554121,"opensAt":"8","closesAt":"23","image":null,"is24hStore":false,"hasPetShop":false},{"id":"0228","name":"пр. Космонавтов, стр. 1В/1","address":"пр. Космонавтов, стр. 1В/1","cityKey":"ekat","type":"hypermarket","lat":56.861286,"long":60.609756,"opensAt":"0","closesAt":"0","image":null,"is24hStore":true,"hasPetShop":false},{"id":"0912","name":"ул. Красноуральская, д. 22","address":"ул. Красноуральская, д. 22","cityKey":"ekat","type":"supermarket","lat":56.833588,"long":60.552916,"opensAt":"8","closesAt":"23","image":null,"is24hStore":false,"hasPetShop":false},{"id":"0908","name":"ул. Кузнецова, д. 3","address":"ул. Кузнецова, д. 3","cityKey":"ekat","type":"supermarket","lat":56.887647,"long":60.606276,"opensAt":"8","closesAt":"23","image":null,"is24hStore":false,"hasPetShop":false},{"id":"0904","name":"ул. Кузнечная, д. 79","address":"ул. Кузнечная, д. 79","cityKey":"ekat","type":"supermarket","lat":56.848181,"long":60.620546,"opensAt":"0","closesAt":"24","image":null,"is24hStore":true,"hasPetShop":false},{"id":"0907","name":"ул. Московская, д. 200","address":"ул. Московская, д. 200","cityKey":"ekat","type":"supermarket","lat":56.799876,"long":60.593883,"opensAt":"8","closesAt":"23","image":null,"is24hStore":false,"hasPetShop":false},{"id":"0906","name":"ул. Сыромолотова, д. 31","address":"ул. Сыромолотова, д. 31","cityKey":"ekat","type":"supermarket","lat":56.835355,"long":60.691594,"opensAt":"0","closesAt":"24","image":null,"is24hStore":true,"hasPetShop":false},{"id":"0230","name":"ул. Таганская, д. 60, А","address":"ул. Таганская, д. 60, А","cityKey":"ekat","type":"hypermarket","lat":56.908325,"long":60.629634,"opensAt":"8","closesAt":"23","image":null,"is24hStore":false,"hasPetShop":false},{"id":"0909","name":"ул. Шейнкмана, д. 86","address":"ул. Шейнкмана, д. 86","cityKey":"ekat","type":"supermarket","lat":56.827824,"long":60.587379,"opensAt":"8","closesAt":"23","image":null,"is24hStore":false,"hasPetShop":false},{"id":"0911","name":"г. Первоуральск, ул. Комсомольская, д. 15Б","address":"г. Первоуральск, ул. Комсомольская, д. 15Б","cityKey":"ekat","type":"supermarket","lat":56.89356,"long":59.956305,"opensAt":"8","closesAt":"23","image":null,"is24hStore":false,"hasPetShop":false},{"id":"0913","name":"г. Первоуральск, ул. Космонавтов, д. 13","address":"г. Первоуральск, ул. Космонавтов, д. 13","cityKey":"ekat","type":"supermarket","lat":56.90979,"long":59.931506,"opensAt":"8","closesAt":"23","image":null,"is24hStore":false,"hasPetShop":false},{"id":"0203","name":"Сибирский тракт (дублер), д. 19/1","address":"Сибирский тракт (дублер), д. 19/1","cityKey":"ekat","type":"hypermarket","lat":56.82489,"long":60.709152,"opensAt":"0","closesAt":"0","image":null,"is24hStore":true,"hasPetShop":false}]