[{"id":"0139","name":"ул. Баумана, д. 20","address":"ул. Баумана, д. 20","cityKey":"kmrv","type":"hypermarket","lat":55.317462,"long":86.095753,"opensAt":"8","closesAt":"24","image":null,"is24hStore":false,"hasPetShop":false},{"id":"0178","name":"пр. Кузнецкий, стр. 33","address":"пр. Кузнецкий, стр. 33","cityKey":"kmrv","type":"hypermarket","lat":55.355855,"long":86.064431,"opensAt":"0","closesAt":"0","image":null,"is24hStore":true,"hasPetShop":false},{"id":"0838","name":"пр. Ленина, д. 64","address":"пр. Ленина, д. 64","cityKey":"kmrv","type":"supermarket","lat":55.345044,"long":86.105292,"opensAt":"8","closesAt":"23","image":null,"is24hStore":false,"hasPetShop":false},{"id":"0841","name":"пр. Ленина, д. 90/1","address":"пр. Ленина, д. 90/1","cityKey":"kmrv","type":"supermarket","lat":55.345549,"long":86.128030999999993,"opensAt":"8","closesAt":"23","image":null,"is24hStore":false,"hasPetShop":false},{"id":"0851","name":"пр. Ленина, д. 59А","address":"пр. Ленина, д. 59А","cityKey":"kmrv","type":"supermarket","lat":55.343712,"long":86.094971,"opensAt":"8","closesAt":"23","image":null,"is24hStore":false,"hasPetShop":false},{"id":"0089","name":"пр. Ленинградский, д. 28B","address":"пр. Ленинградский, д. 28B","cityKey":"kmrv","type":"hypermarket","lat":55.348393,"long":86.176263,"opensAt":"0","closesAt":"0","image":null,"is24hStore":true,"hasPetShop":false},{"id":"0842","name":"ул. Леонова, д. 10","address":"ул. Леонова, д. 10","cityKey":"kmrv","type":"supermarket","lat":55.393173,"long":86.01747,"opensAt":"8","closesAt":"23","image":null,"is24hStore":false,"hasPetShop":false},{"id":"0850","name":"пр. Молодёжный, д. 2","address":"пр. Молодёжный, д. 2","cityKey":"kmrv","type":"supermarket","lat":55.32871,"long":86.124286,"opensAt":"8","closesAt":"23","image":null,"is24hStore":false,"hasPetShop":false},{"id":"0840","name":"пр. пр. Ленина, д. 116","address":"пр. пр. Ленина, д. 116","cityKey":"kmrv","type":"supermarket","lat":55.346157,"long":86.149329,"opensAt":"8","closesAt":"23","image":null,"is24hStore":false,"hasPetShop":false},{"id":"0839","name":"ул. Сибиряков-Гвардейцев, д. 18А","address":"ул. Сибиряков-Гвардейцев, д. 18А","cityKey":"kmrv","type":"supermarket","lat":55.337806,"long":86.071376,"opensAt":"8","closesAt":"23","image":null,"is24hStore":false,"hasPetShop":false},{"id":"0820","name":"бул. Строителей, д. 28","address":"бул. Строителей, д. 28","cityKey":"kmrv","type":"supermarket","lat":55.344804,"long":86.16741,"opensAt":"8","closesAt":"23","image":null,"is24hStore":false,"hasPetShop":false},{"id":"0819","name":"пр. Химиков, д. 39","address":"пр. Химиков, д. 39","cityKey":"kmrv","type":"supermarket","lat":55.344114,"long":86.181665,"opensAt":"8","closesAt":"23","image":null,"is24hStore":false,"hasPetShop":false}]