[{"id":"0601","name":"ул. 1-я Останкинская, д. 55","address":"ул. 1-я Останкинская, д. 55","cityKey":"msk","type":"supermarket","lat":55.825081,"long":37.634134,"opensAt":"0","closesAt":"24","image":null,"is24hStore":true,"hasPetShop":false},{"id":"0124","name":"ул. 7-я Кожуховская, д. 9","address":"ул. 7-я Кожуховская, д. 9","cityKey":"msk","type":"hypermarket","lat":55.710859,"long":37.67517,"opensAt":"0","closesAt":"0","image":null,"is24hStore":true,"hasPetShop":false},{"id":"0655","name":"пер. Ангелов, д. 6","address":"пер. Ангелов, д. 6","cityKey":"msk","type":"supermarket","lat":55.853535,"long":37.347363,"opensAt":"8","closesAt":"23","image":null,"is24hStore":false,"hasPetShop":false},{"id":"0291","name":"ул. Бибиревская, д. 10, к. 2","address":"ул. Бибиревская, д. 10, к. 2","cityKey":"msk","type":"hypermarket","lat":55.881573,"long":37.602309,"opensAt":"8","closesAt":"23","image":null,"is24hStore":true,"hasPetShop":false},{"id":"0302","name":"ул. Большая Черемушкинская, д. 1","address":"ул. Большая Черемушкинская, д. 1","cityKey":"msk","type":"hypermarket","lat":55.689305,"long":37.601543,"opensAt":"0","closesAt":"0","image":null,"is24hStore":true,"hasPetShop":false},{"id":"0029","name":"ул. Борисовские пруды, д. 26, к. 2","address":"ул. Борисовские пруды, д. 26, к. 2","cityKey":"msk","type":"hypermarket","lat":55.639017,"long":37.758968,"opensAt":"0","closesAt":"0","image":null,"is24hStore":true,"hasPetShop":false},{"id":"0626","name":"пр. Буденного, 18, Б","address":"пр. Буденного, 18, Б","cityKey":"msk","type":"supermarket","lat":55.767459,"long":37.728948,"opensAt":"8","closesAt":"23","image":null,"is24hStore":false,"hasPetShop":false},{"id":"0614","name":"ул. Гурьянова, д. 2А","address":"ул. Гурьянова, д. 2А","cityKey":"msk","type":"supermarket","lat":55.693885,"long":37.723008,"opensAt":"0","closesAt":"0","image":null,"is24hStore":true,"hasPetShop":false},{"id":"0293","name":"ш. Дмитровское, д. 116, Д","address":"ш. Дмитровское, д. 116, Д","cityKey":"msk","type":"hypermarket","lat":55.902147,"long":37.548111,"opensAt":"0","closesAt":"24","image":null,"is24hStore":true,"hasPetShop":false},{"id":"0634","name":"бул. Есенинский, д. 1/26, к. 1","address":"бул. Есенинский, д. 1/26, к. 1","cityKey":"msk","type":"supermarket","lat":55.707236,"long":37.781501,"opensAt":"8","closesAt":"23","image":null,"is24hStore":false,"hasPetShop":false},{"id":"0604","name":"ул. Зеленодольская, д. 44","address":"ул. Зеленодольская, д. 44","cityKey":"msk","type":"supermarket","lat":55.701069,"long":37.764404,"opensAt":"0","closesAt":"0","image":null,"is24hStore":true,"hasPetShop":false},{"id":"0606","name":"ул. Ивана Франко, д. 38, к. 1","address":"ул. Ивана Франко, д. 38, к. 1","cityKey":"msk","type":"supermarket","lat":55.728204,"long":37.415963,"opensAt":"0","closesAt":"0","image":null,"is24hStore":true,"hasPetShop":false},{"id":"0624","name":"ул. Красных Зорь, д. 19","address":"ул. Красных Зорь, д. 19","cityKey":"msk","type":"supermarket","lat":55.7259,"long":37.435782,"opensAt":"8","closesAt":"23","image":null,"is24hStore":false,"hasPetShop":false},{"id":"0182","name":"пр. Ленинский , 123, В","address":"пр. Ленинский , 123, В","cityKey":"msk","type":"hypermarket","lat":55.647808,"long":37.480977,"opensAt":"0","closesAt":"24","image":null,"is24hStore":true,"hasPetShop":false},{"id":"0639","name":"ш. Можайское, д. 39","address":"ш. Можайское, д. 39","cityKey":"msk","type":"supermarket","lat":55.717508,"long":37.413503,"opensAt":"8","closesAt":"23","image":null,"is24hStore":false,"hasPetShop":false},{"id":"0668","name":"пр-д Окружной, 2, А","address":"пр-д Окружной, 2, А","cityKey":"msk","type":"supermarket","lat":55.803848,"long":37.744771,"opensAt":"8","closesAt":"23","image":null,"is24hStore":false,"hasPetShop":false},{"id":"0296","name":"бул. Ореховый, д. 22А","address":"бул. Ореховый, д. 22А","cityKey":"msk","type":"hypermarket","lat":55.612193,"long":37.732738,"opensAt":"9","closesAt":"23","image":null,"is24hStore":false,"hasPetShop":false},{"id":"0650","name":"ш. Пятницкое, д. 29, к. 2","address":"ш. Пятницкое, д. 29, к. 2","cityKey":"msk","type":"supermarket","lat":55.850142,"long":37.363709,"opensAt":"8","closesAt":"23","image":null,"is24hStore":false,"hasPetShop":false},{"id":"0651","name":"пл. Сокольническая, д. 4, к. 1-2","address":"пл. Сокольническая, д. 4, к. 1-2","cityKey":"msk","type":"supermarket","lat":55.789836,"long":37.678239,"opensAt":"0","closesAt":"0","image":null,"is24hStore":true,"hasPetShop":false},{"id":"0605","name":"ул. Твардовского, д. 2, к. 1","address":"ул. Твардовского, д. 2, к. 1","cityKey":"msk","type":"supermarket","lat":55.798925,"long":37.389068,"opensAt":"0","closesAt":"24","image":null,"is24hStore":true,"hasPetShop":false},{"id":"0607","name":"ул. Тушинская, д. 17","address":"ул. Тушинская, д. 17","cityKey":"msk","type":"supermarket","lat":55.826714,"long":37.444958,"opensAt":"0","closesAt":"0","image":null,"is24hStore":true,"hasPetShop":false},{"id":"0656","name":"бул. Чонгарский, д. 7","address":"бул. Чонгарский, д. 7","cityKey":"msk","type":"supermarket","lat":55.651379,"long":37.612389,"opensAt":"8","closesAt":"23","image":null,"is24hStore":false,"hasPetShop":false},{"id":"0304","name":"ш. Ярославское, д. 54","address":"ш. Ярославское, д. 54","cityKey":"msk","type":"hypermarket","lat":55.86566,"long":37.705042,"opensAt":"0","closesAt":"0","image":null,"is24hStore":true,"hasPetShop":false},{"id":"0183","name":"п.  Воскресенское, пр-д Чечёрский, д. 51","address":"п.  Воскресенское, пр-д Чечёрский, д. 51","cityKey":"msk","type":"hypermarket","lat":55.524095,"long":37.51798,"opensAt":"0","closesAt":"0","image":null,"is24hStore":true,"hasPetShop":false},{"id":"0292","name":"д. Говорово, МКАД 47-й км, стр. 20","address":"д. Говорово, МКАД 47-й км, стр. 20","cityKey":"msk","type":"hypermarket","lat":55.658774,"long":37.430777,"opensAt":"0","closesAt":"0","image":null,"is24hStore":true,"hasPetShop":false},{"id":"0613","name":"г. Зеленоград, ул. Гоголя, д. 2","address":"г. Зеленоград, ул. Гоголя, д. 2","cityKey":"msk","type":"supermarket","lat":55.983308,"long":37.174056,"opensAt":"0","closesAt":"0","image":null,"is24hStore":true,"hasPetShop":false},{"id":"0142","name":"г. Троицк, Калужское ш. 42-й км, д. 6","address":"г. Троицк, Калужское ш. 42-й км, д. 6","cityKey":"msk","type":"hypermarket","lat":55.455387,"long":37.289272,"opensAt":"0","closesAt":"0","image":null,"is24hStore":true,"hasPetShop":false}]