[{"id":"0173","name":"ш. Бердское, д. 2","address":"ш. Бердское, д. 2","cityKey":"nsk","type":"hypermarket","lat":54.970397,"long":83.036812,"opensAt":"0","closesAt":"0","image":null,"is24hStore":true,"hasPetShop":false},{"id":"0073","name":"ул. Большевистская, д. 52/1","address":"ул. Большевистская, д. 52/1","cityKey":"nsk","type":"hypermarket","lat":54.995042,"long":82.965902,"opensAt":"0","closesAt":"0","image":null,"is24hStore":true,"hasPetShop":false},{"id":"0831","name":"ул. Бориса Богаткова, д. 206","address":"ул. Бориса Богаткова, д. 206","cityKey":"nsk","type":"supermarket","lat":55.033739,"long":82.973279,"opensAt":"8","closesAt":"23","image":null,"is24hStore":false,"hasPetShop":false},{"id":"0818","name":"ул. Ветлужская, д. 24","address":"ул. Ветлужская, д. 24","cityKey":"nsk","type":"supermarket","lat":54.854734,"long":82.97415,"opensAt":"8","closesAt":"23","image":null,"is24hStore":false,"hasPetShop":false},{"id":"0805","name":"ул. Волочаевская, д. 2/2","address":"ул. Волочаевская, д. 2/2","cityKey":"nsk","type":"supermarket","lat":55.058715,"long":82.985218,"opensAt":"8","closesAt":"23","image":null,"is24hStore":false,"hasPetShop":false},{"id":"0835","name":"ул. Волховская, д. 30","address":"ул. Волховская, д. 30","cityKey":"nsk","type":"supermarket","lat":54.969453,"long":82.839634,"opensAt":"8","closesAt":"23","image":null,"is24hStore":false,"hasPetShop":false},{"id":"0802","name":"ул. Геодезическая, д. 4/1","address":"ул. Геодезическая, д. 4/1","cityKey":"nsk","type":"supermarket","lat":54.989553,"long":82.904252,"opensAt":"0","closesAt":"0","image":null,"is24hStore":true,"hasPetShop":false},{"id":"0071","name":"ш. Гусинобродское, д. 64","address":"ш. Гусинобродское, д. 64","cityKey":"nsk","type":"hypermarket","lat":55.037388,"long":83.015791,"opensAt":"0","closesAt":"24","image":null,"is24hStore":true,"hasPetShop":false},{"id":"0833","name":"ш. Гусинобродское, д. 20","address":"ш. Гусинобродское, д. 20","cityKey":"nsk","type":"supermarket","lat":55.035503,"long":83.00294,"opensAt":"8","closesAt":"23","image":null,"is24hStore":false,"hasPetShop":false},{"id":"0809","name":"ул. Депутатская, д. 46","address":"ул. Депутатская, д. 46","cityKey":"nsk","type":"supermarket","lat":55.029297,"long":82.926102,"opensAt":"0","closesAt":"24","image":null,"is24hStore":true,"hasPetShop":false},{"id":"0849","name":"пр. Дзержинского, д. 2, к. 2","address":"пр. Дзержинского, д. 2, к. 2","cityKey":"nsk","type":"supermarket","lat":55.044009,"long":82.953223,"opensAt":"8","closesAt":"23","image":null,"is24hStore":false,"hasPetShop":false},{"id":"0812","name":"ул. Дуси Ковальчук, д. 276, к. 11","address":"ул. Дуси Ковальчук, д. 276, к. 11","cityKey":"nsk","type":"supermarket","lat":55.061928,"long":82.920131,"opensAt":"0","closesAt":"24","image":null,"is24hStore":true,"hasPetShop":false},{"id":"0821","name":"ул. Дуси Ковальчук, д. 91","address":"ул. Дуси Ковальчук, д. 91","cityKey":"nsk","type":"supermarket","lat":55.056776,"long":82.904711,"opensAt":"8","closesAt":"23","image":null,"is24hStore":false,"hasPetShop":false},{"id":"0825","name":"ул. Зорге, д. 271/1","address":"ул. Зорге, д. 271/1","cityKey":"nsk","type":"supermarket","lat":54.932687,"long":82.926303,"opensAt":"8","closesAt":"23","image":null,"is24hStore":false,"hasPetShop":false},{"id":"0801","name":"ул. Карла Маркса, д. 2","address":"ул. Карла Маркса, д. 2","cityKey":"nsk","type":"supermarket","lat":54.983649,"long":82.89295,"opensAt":"8","closesAt":"23","image":null,"is24hStore":false,"hasPetShop":false},{"id":"0077","name":"ул. Кирзаводская, д. 1А","address":"ул. Кирзаводская, д. 1А","cityKey":"nsk","type":"hypermarket","lat":54.97057,"long":82.855203,"opensAt":"0","closesAt":"0","image":null,"is24hStore":true,"hasPetShop":false},{"id":"0834","name":"ул. Колхидская, д. 11","address":"ул. Колхидская, д. 11","cityKey":"nsk","type":"supermarket","lat":54.990098,"long":82.816111,"opensAt":"8","closesAt":"23","image":null,"is24hStore":false,"hasPetShop":false},{"id":"0829","name":"ул. Котовского, д. 2В","address":"ул. Котовского, д. 2В","cityKey":"nsk","type":"supermarket","lat":54.992279,"long":82.877965,"opensAt":"8","closesAt":"23","image":null,"is24hStore":false,"hasPetShop":false},{"id":"0837","name":"ул. Курчатова, д. 7/1","address":"ул. Курчатова, д. 7/1","cityKey":"nsk","type":"supermarket","lat":55.104696,"long":82.965962,"opensAt":"8","closesAt":"23","image":null,"is24hStore":false,"hasPetShop":false},{"id":"0808","name":"ул. Ленина, д. 29","address":"ул. Ленина, д. 29","cityKey":"nsk","type":"supermarket","lat":55.031029,"long":82.903733,"opensAt":"0","closesAt":"24","image":null,"is24hStore":true,"hasPetShop":false},{"id":"0811","name":"ул. Ленина, д. 84","address":"ул. Ленина, д. 84","cityKey":"nsk","type":"supermarket","lat":55.036351,"long":82.899751,"opensAt":"8","closesAt":"23","image":null,"is24hStore":false,"hasPetShop":false},{"id":"0836","name":"ул. Маяковского, д. 24","address":"ул. Маяковского, д. 24","cityKey":"nsk","type":"supermarket","lat":54.973858,"long":83.085719,"opensAt":"8","closesAt":"23","image":null,"is24hStore":false,"hasPetShop":false},{"id":"0095","name":"ул. Мясниковой, д. 29","address":"ул. Мясниковой, д. 29","cityKey":"nsk","type":"hypermarket","lat":55.105357,"long":82.934424,"opensAt":"0","closesAt":"0","image":null,"is24hStore":true,"hasPetShop":false},{"id":"0816","name":"ул. Пархоменко, д. 90/1","address":"ул. Пархоменко, д. 90/1","cityKey":"nsk","type":"supermarket","lat":54.987142,"long":82.850183,"opensAt":"8","closesAt":"23","image":null,"is24hStore":false,"hasPetShop":false},{"id":"0080","name":"ул. Петухова, д. 73","address":"ул. Петухова, д. 73","cityKey":"nsk","type":"hypermarket","lat":54.941884,"long":82.923162,"opensAt":"0","closesAt":"0","image":null,"is24hStore":true,"hasPetShop":false},{"id":"0832","name":"ул. Трикотажная, д. 29","address":"ул. Трикотажная, д. 29","cityKey":"nsk","type":"supermarket","lat":55.057686,"long":82.977053,"opensAt":"8","closesAt":"23","image":null,"is24hStore":false,"hasPetShop":false},{"id":"0817","name":"ул. Троллейная, 130, А","address":"ул. Троллейная, 130, А","cityKey":"nsk","type":"supermarket","lat":54.966463,"long":82.852966,"opensAt":"8","closesAt":"23","image":null,"is24hStore":false,"hasPetShop":false},{"id":"0823","name":"ул. Тюленина, д. 27","address":"ул. Тюленина, д. 27","cityKey":"nsk","type":"supermarket","lat":55.113529,"long":82.933743,"opensAt":"0","closesAt":"24","image":null,"is24hStore":true,"hasPetShop":false},{"id":"0072","name":"ул. Энергетиков, д. 9","address":"ул. Энергетиков, д. 9","cityKey":"nsk","type":"hypermarket","lat":55.009188,"long":82.87708,"opensAt":"0","closesAt":"0","image":null,"is24hStore":true,"hasPetShop":false},{"id":"0847","name":"г. Бердск, ул. Горького, д. 6","address":"г. Бердск, ул. Горького, д. 6","cityKey":"nsk","type":"supermarket","lat":54.758814,"long":83.10639,"opensAt":"8","closesAt":"23","image":null,"is24hStore":false,"hasPetShop":false},{"id":"0810","name":"г. Бердск, ул. Комсомольская, д. 15","address":"г. Бердск, ул. Комсомольская, д. 15","cityKey":"nsk","type":"supermarket","lat":54.763986,"long":83.101943,"opensAt":"8","closesAt":"23","image":null,"is24hStore":false,"hasPetShop":false},{"id":"0807","name":"г.  Искитим, мкр. Южный, д. 56, лит. А","address":"г.  Искитим, мкр. Южный, д. 56, лит. А","cityKey":"nsk","type":"supermarket","lat":54.615001,"long":83.288,"opensAt":"8","closesAt":"23","image":null,"is24hStore":false,"hasPetShop":false}]