[{"id":"0209","name":"ул. Алебашевская, д. 19","address":"ул. Алебашевская, д. 19","cityKey":"tmn","type":"hypermarket","lat":57.169597,"long":65.568115,"opensAt":"0","closesAt":"0","image":null,"is24hStore":true,"hasPetShop":false},{"id":"0091","name":"ул. Мельникайте, д. 139","address":"ул. Мельникайте, д. 139","cityKey":"tmn","type":"hypermarket","lat":57.115451,"long":65.545046,"opensAt":"0","closesAt":"0","image":null,"is24hStore":true,"hasPetShop":false},{"id":"0245","name":"ул. Народная, д. 76","address":"ул. Народная, д. 76","cityKey":"tmn","type":"hypermarket","lat":57.093115,"long":65.599626,"opensAt":"8","closesAt":"24","image":null,"is24hStore":false,"hasPetShop":false},{"id":"0094","name":"ул. Республики, д. 291","address":"ул. Республики, д. 291","cityKey":"tmn","type":"hypermarket","lat":57.104078,"long":65.661117,"opensAt":"8","closesAt":"24","image":null,"is24hStore":false,"hasPetShop":false},{"id":"0146","name":"Тобольский тракт, д. 101","address":"Тобольский тракт, д. 101","cityKey":"tmn","type":"hypermarket","lat":57.1732,"long":65.673712,"opensAt":"8","closesAt":"24","image":null,"is24hStore":false,"hasPetShop":false}]