[{"id":"0200","name":"ул. Бакалинская, д. 27","address":"ул. Бакалинская, д. 27","cityKey":"ufa","type":"hypermarket","lat":54.717108,"long":55.984624,"opensAt":"0","closesAt":"0","image":null,"is24hStore":true,"hasPetShop":false},{"id":"0057","name":"ул. Бельская, д. 70","address":"ул. Бельская, д. 70","cityKey":"ufa","type":"hypermarket","lat":54.696068,"long":55.971428,"opensAt":"0","closesAt":"0","image":null,"is24hStore":true,"hasPetShop":false},{"id":"0202","name":"ул. Пархоменко, д. 156","address":"ул. Пархоменко, д. 156","cityKey":"ufa","type":"hypermarket","lat":54.740661,"long":55.968209,"opensAt":"8","closesAt":"23","image":null,"is24hStore":false,"hasPetShop":false},{"id":"0030","name":"ул. Сипайловская, д. 1","address":"ул. Сипайловская, д. 1","cityKey":"ufa","type":"hypermarket","lat":54.764689,"long":56.042226,"opensAt":"0","closesAt":"0","image":null,"is24hStore":true,"hasPetShop":false},{"id":"0225","name":"ул. Ферина, 29","address":"ул. Ферина, 29","cityKey":"ufa","type":"hypermarket","lat":54.778492,"long":56.132767,"opensAt":"8","closesAt":"23","image":null,"is24hStore":false,"hasPetShop":false}]